place_id,nombre,rating,reseñas,price_level,lat,lon,address,types
ChIJI6bY2zqcP44R80cicAHwUCQ,Mariana Terpel,4.3,661,,4.63947,-74.15666,"Dg. 2b #85-10 Sur, Bogotá","gas_station,point_of_interest,establishment"
ChIJc7GhyN-aP44RthtoUgRXHLk,Combuscol Texaco La Floresta,4.3,602,,4.6877606,-74.0748677,"Av. 68 #95-85, Suba, Bogotá","gas_station,point_of_interest,establishment"
ChIJxzorTYmPP44Rq4fEOqvUfes,EDS Terpel La Juana,4.3,769,,4.731088100000001,-74.0241984,Carrera 7 No. 155 - 99 Bogotá Bogotá Distrito,"gas_station,point_of_interest,establishment"
ChIJSw1DhwycP44RDOYj8t0y8S8,Terpel Gazel Villa Alsacia,4.3,1659,,4.645531699999999,-74.1303441,"Av. Boyacá #12-71, Bogotá","gas_station,point_of_interest,establishment"
ChIJG9BAAfGbP44RLiEpAW9PVs8,Terpel Las Palmas,4.3,978,,4.6405939,-74.1153048,"Av. 68 #Calle 17, Bogotá","gas_station,point_of_interest,establishment"
ChIJM0N_N-qaP44Rq2a6oIkdpkQ,Estación De Servicio Terpel,4.0,259,,4.684369,-74.058105,"Avenida Carrera 13 #9571, Bogotá","gas_station,point_of_interest,establishment"
ChIJE6CUzXebP44Rcg0CZgsxJDQ,Calle 49 Terpel Service Station,4.2,887,,4.6681325,-74.109622,"Av. Boyacá #49 48, Bogotá","gas_station,point_of_interest,establishment"
ChIJsxJnuPCEP44Rt7eeEHfxsmc,Terpel La Conejera,4.3,1766,,4.7411178,-74.0899988,"Cra. 98a #140B-60, Bogotá","gas_station,point_of_interest,establishment"
ChIJj41cz0-bP44Rrg1fFZI61Zs,Terpel Zarzamora Service Station,4.1,548,,4.699376099999999,-74.11119459999999,"Cl 72 #91a-45, Engativá, Bogotá","gas_station,point_of_interest,establishment"
ChIJ5WSIK7yaP44RoU_I4YlblKI,Terpel Service Station,4.3,880,,4.6888216,-74.047201,"Ak 15 #10371, Bogotá","gas_station,point_of_interest,establishment"
ChIJIzxRSBqfP44Rf4Bs-Ug3g7o,Terpel Service Station Las Vegas Gazel,4.3,937,,4.580793,-74.154372,"Cra. 51 #58D-17, Cdad. Bolívar, Bogotá","gas_station,point_of_interest,establishment"
ChIJ2S2OPUSFP44R4wAirHh7uQ4,Terpel station Contador,4.4,501,,4.719435,-74.0466835,"Cra 19 #134a54, Bogotá","gas_station,point_of_interest,establishment"
ChIJWS2s90mbP44R4FC60XxT4nI,Petrobras La Soledad,4.2,199,,4.6310641,-74.07253279999999,"Diagonal 42a, Ak. 19 # 40 89, Bogotá","gas_station,point_of_interest,establishment"
ChIJZ50Y69SbP44RAbhYo4_c6p8,Terpel Avenida Carrera 28,4.2,358,,4.6305363,-74.0786932,"Cra. 28 #39B-67, Teusaquillo, Bogotá","gas_station,point_of_interest,establishment"
ChIJrxaw7ziaP44RxY46ETIOAmE,Primax Triángulo Autogas,4.1,425,,4.6447328,-74.0616199,"Ak 7 #59-47, Bogotá","gas_station,point_of_interest,establishment"
ChIJCQ3Z9XObP44RFeRPYc-bj74,Petrobras Normandía,4.2,607,,4.6724435,-74.1053836,"Av. Boyacá #54a-24, Bogotá","gas_station,point_of_interest,establishment"
ChIJv8Juk0uaP44Rx77sUiFSWIo,Texaco Chapinero,3.9,212,,4.6507638,-74.0727472,"39, Cra. 24 #62, Teusaquillo, Bogotá","gas_station,point_of_interest,establishment"
ChIJpZKRZ3ubP44RGK4YVqG5SwM,Estación TERPEL Metro San Cayetano,4.1,399,,4.6768127,-74.1173396,"Cl. 46a #85A-51, Engativá, Bogotá","gas_station,point_of_interest,establishment"
ChIJk6M_pfiPP44R-TO___kQnv4,REDH PETROBRAS ABADÍA,4.0,436,,4.7111979,-74.02933019999999,"Ak 7 # 133 - 31, Bogotá","gas_station,point_of_interest,establishment"
ChIJtT2IjCWbP44REF3Unyh6aho,Service station Terpel Pontevedra,4.3,1653,,4.696497,-74.084532,"Av. Boyacá # 93-72, Bogotá","gas_station,cafe,store,meal_delivery,food,point_of_interest,establishment"
ChIJ-9byVUmFP44Rt9gmUe3Tp4c,Primax el Country,4.2,247,,4.710947,-74.0478376,"Cra 19 #127c - 50, Bogotá","gas_station,point_of_interest,establishment"
ChIJo_f8GGKaP44RWPjrHLOQ6Q8,REDH PRIMAX KL,4.0,124,,4.665056799999999,-74.04706999999999,"Ak 7 #84D-57, Chapinero, Bogotá, Cundinamarca","gas_station,point_of_interest,establishment"
ChIJ92Ljh1uaP44RIMfP-3DR9js,Texaco El Pino 73,4.2,268,,4.65945,-74.05944099999999,"Cl. 73 #88, Bogotá","gas_station,point_of_interest,establishment"
ChIJ7Z8QCrqeP44R6kB90IJ-lHo,Texaco Darien Bogotá,4.2,244,,4.6141108,-74.1358243,"Cra. 69b #26-35 Sur, Antonio Nariño, Bogotá","gas_station,point_of_interest,establishment"
ChIJL-U9Yo6cP44RX7OHjgLZ92A,EDS Terpel Fontibon Ferrocarril,4.3,1147,,4.6757697,-74.1405782,"Av. Ferrocarril de Occidente #98A-03, Fontibón, Bogotá","gas_station,point_of_interest,establishment"
ChIJwcA6ndObP44Rj8c1hqFBzdw,Texaco GNV,3.8,538,,4.632583599999999,-74.0800629,"Carrera 33, Teusaquillo, Bogotá","gas_station,point_of_interest,establishment"
ChIJmxYI19WbP44R6Z0thCd0G14,Texaco service station - Montallantas,4.1,348,,4.628820999999999,-74.0826558,"Av. El Dorado #32-61, Bogotá","gas_station,point_of_interest,establishment"
ChIJh0323FiaP44RzntumIigDGU,Combuscol Texaco Heroes,4.2,1007,,4.6644574,-74.0607411,"Ak. 20 #76-14, Bogotá","gas_station,point_of_interest,establishment"
ChIJR_DceFSaP44RQ5Ia_a0GUeE,Terpel Juan Martin,4.0,324,,4.6617058,-74.0734549,"Cl. 68 #28A-23, Barrios Unidos, Bogotá","gas_station,point_of_interest,establishment"
ChIJE5u_53CDP44ROT0SWy0EizA,Terpel La Florida,4.3,539,,4.7416471,-74.1379182,"Autopista Medellin #via Km 1,5, Bogota, Bogotá","gas_station,point_of_interest,establishment"
ChIJoWCbBh-bP44RCQw-jBv_6gg,Estación de Servicio Primax Calle 80,4.2,704,,4.6864963,-74.0815018,"Av Cl 80 #68h-33, Bogotá","gas_station,point_of_interest,establishment"
ChIJ1-r8zUOaP44ReP36GZ_FUZo,Texaco,4.2,665,,4.6518956,-74.05686109999999,"Ak 7 #70-26, Bogotá","gas_station,point_of_interest,establishment"
ChIJkcdLTDWFP44Rwjot-WBZzI8,Terpel,4.2,848,,4.7063327,-74.05450549999999,"Cra. 45 #125 - 81, Bogotá","gas_station,point_of_interest,establishment"
ChIJFZ7QfwWFP44RBkueRIsX2MY,EDS Terpel Compostela y GAZEL,4.4,1311,,4.7386713,-74.0654003,"Av. Boyacá #152-50, Suba, Bogotá, Cundinamarca","gas_station,point_of_interest,establishment"
ChIJO2aEli6aP44R8zVyBRKLJTU,Petrobras Service Station,4.2,458,,4.6330918,-74.0700622,"Cl. 45 #16-30, Bogotá","gas_station,point_of_interest,establishment"
ChIJ0TP5WQCbP44RN_KCwlOZINY,Primax,4.1,186,,4.6687492,-74.0796251,"Cra. 57 #68-27, Bogotá","gas_station,point_of_interest,establishment"
ChIJb2yXXNuYP44RUfDNP4IwYvQ,Texaco Cll 27sur,4.2,635,,4.5786494,-74.1069782,"Cra. 13 #27A-50, Rafael Uribe Uribe, Bogotá","gas_station,point_of_interest,establishment"
ChIJw3ilvY2bP44R7kv4XicpqvM,Estación de Servicio Biomax,4.2,221,,4.6984803,-74.0818123,"Av. Boyacá #98-60, Bogotá","gas_station,store,point_of_interest,establishment"
ChIJ52XrQCmGP44Rb_Agtrv-vjA,EDS Terpel Motomart,4.2,1056,,4.819348499999999,-74.034655,"I-autonorte #km 17, Usaquén, Bogotá","gas_station,point_of_interest,establishment"
ChIJoZ7lF8ubP44RyQssdBfPmAo,REDH PRIMAX AV QUITO,4.3,252,,4.6435857,-74.07855760000001,"Ave Cra 30 #5382, Bogotá","gas_station,point_of_interest,establishment"
ChIJTTMWr6yeP44Ro6E-SeCJN8k,EDS Terpel Trinidad,4.3,801,,4.622695,-74.1243975,"Av. 68, Puente Aranda, Bogotá","gas_station,point_of_interest,establishment"
ChIJR-KQjmSZP44RgiT3f5oEHK8,Terpel EDS Paloquemao,4.2,392,,4.6213061,-74.0911868,"Av. Ciudad de Lima #68, Bogotá","gas_station,point_of_interest,establishment"
ChIJrw0rCjubP44R60U9UBMrsbs,Estación de Servicio Terpel Av Boyaca,4.2,2736,,4.6935196,-74.09151460000001,"Av. Boyacá #77a11, Engativá, Bogotá, Cundinamarca","gas_station,point_of_interest,establishment"
ChIJPZbwkC2fP44RqmZ_0iJf4vA,Texaco Tunal,4.2,972,,4.5790025,-74.127715,"Cl. 46 Sur # 24a-09, Bogotá","gas_station,point_of_interest,establishment"
ChIJH8EYXhSbP44RztZv0sD0KCM,Primax La Europa,4.0,454,,4.6834565,-74.0973102,"Av. Boyacá #86, Bogotá","gas_station,point_of_interest,establishment"
ChIJF3BtvjGaP44R20rum8Gvimg,TEXACO,4.0,264,,4.6404014,-74.0698675,"Cra. 17 #50, Teusaquillo, Bogotá","gas_station,point_of_interest,establishment"
ChIJN0iy3S-aP44RT2l_jvqs8iM,Primax Calle 49,3.8,73,,4.6361548,-74.06682649999999,"Av Caracas #48 -74, Bogotá","gas_station,point_of_interest,establishment"
ChIJSa5-Mf-YP44RUIdygOzgAyM,terpel Buenos aires,4.2,265,,4.5823639,-74.0790038,"Cl. 1 #2-1 a 2-69, Bogotá","gas_station,point_of_interest,establishment"
ChIJjQ9PQ1mEP44R631wBXQKi4Y,Texaco Pradera de Suba.,4.1,642,,4.751315000000001,-74.0933987,"Cra. 104 #151c84 #151c, Bogotá","gas_station,point_of_interest,establishment"
ChIJ2zydRHGcP44R-b8YUb7zjHo,Calle 13 Service Station,3.9,163,,4.6533655,-74.13127349999999,"Calle 17 # 78 G -11, Bogotá","gas_station,point_of_interest,establishment"
ChIJOR7HNfmaP44Rkos450rhL-c,Texaco,4.3,124,,4.6701022,-74.0708578,"Nqs, Barrios Unidos, Bogotá","gas_station,point_of_interest,establishment"
ChIJ4SDovayZP44RgdCwlR0cnTs,Gasolinera,4.4,172,,4.5895724,-74.07111689999999,"La Candelaria, Bogotá, Bogota","gas_station,point_of_interest,establishment"
ChIJrY3wqyeZP44RNMEDkv2iTN4,Distracom Petrobras Av Primera de Mayo,4.4,237,,4.5897353,-74.1098414,"Ac. 22 Sur, Bogotá","gas_station,point_of_interest,establishment"
ChIJjz8t0xuGP44Rk8epNwSBlt8,Texaco Antares,4.2,123,,4.7999212,-74.0391513,"I-autonorte #222-79, Suba, Bogotá","gas_station,point_of_interest,establishment"
ChIJ5QhkmueYP44Rn6_N08kWZ7c,Primax - EDS COESCO ESPIRITU SANTO,4.2,363,,4.5794351,-74.09938369999999,"Cl. 22 Sur #No. 12 B 94, Antonio Nariño, Bogotá, Cundinamarca","gas_station,point_of_interest,establishment"
ChIJ92cNXuOYP44RtaLV4jkK4Gk,Texaco 29 Combustibles,4.2,148,,4.582954,-74.089753,"Ak. 10 #8, Bogotá","gas_station,point_of_interest,establishment"
ChIJL6XTP6OeP44R6-I-WuPfJUQ,Terpel,4.3,212,,4.6195721,-74.14317729999999,"1 De Mayo #35-09, Kennedy, Bogotá","gas_station,point_of_interest,establishment"
ChIJr-u5YM-EP44ReEeJ6Sbtryk,Estación de Servicio Petrobras Juan Amarillo,4.1,476,,4.716756999999999,-74.09308899999999,"Avenida Carrera 91, Bogotá","gas_station,point_of_interest,establishment"
ChIJx5SPl1ibP44R3hW7jWtNzYM,EDS Terpel Álamos,4.2,686,,4.694121,-74.123222,"Cra. 98 #7, Bogotá","gas_station,point_of_interest,establishment"
ChIJD1vYbFeZP44RB_tX538dntg,EDS Terpel Américas,4.2,258,,4.6250298,-74.0937762,"TV 39 Bis A, Av. de las Américas, Bogotá","gas_station,point_of_interest,establishment"
